{
  "places": [
    {
      "name": "DUTA CARGO SURABAYA",
      "latitude": -7.236298613466744,
      "longitude": 112.73291035705064
    },
    {
      "name": "Sentana Cargo. PT",
      "latitude": -7.240895631199383,
      "longitude": 112.72988976523357
    },
    {
      "name": "JS CARGO Surabaya",
      "latitude": -7.236758931375138,
      "longitude": 112.71992521494437
    },
    {
      "name": "CV. Bersama Jaya Cargo",
      "latitude": -7.235209871173766,
      "longitude": 112.7238671676234
    },
    {
      "name": "Indah Cargo Surabaya",
      "latitude": -7.248298,
      "longitude": 112.762344
    },
    {
      "name": "Ekspedisi FJS Expres Cargo",
      "latitude": -7.263732,
      "longitude": 112.781891
    },
    {
      "name": "Indah Logistik Agen ITS Surabaya",
      "latitude": -7.281474,
      "longitude": 112.786789
    },
    {
      "name": "JnT Cargo Sukolilo",
      "latitude": -7.306622,
      "longitude": 112.768295
    },
    {
      "name": "J And T Cargo Keputih",
      "latitude": -7.291500,
      "longitude": 112.803200 
    },
    {
      "name": "JnT Cargo Semolowaru",
      "latitude": -7.300800,
      "longitude": 112.780701
    },
    {
      "name": "J&T Cargo MERR Rungkut Harapan",
      "latitude": -7.323585,
      "longitude": 112.778076
    },  
    {
      "name": "JnT Cargo Surabya Wonokromo",
      "latitude": -7.299118,
      "longitude": 112.740875
    },  
    {
      "name": "JnT Cargo Gubeng",
      "latitude": -7.293787,
      "longitude": 112.762550
    },
    {
      "name": "PT Prima International Cargo Surabaya",
      "latitude": -7.313131,
      "longitude": 112.766296
    },  
    {
      "name": "Sentral Cargo Surabaya Pusat",
      "latitude": -7.343487,
      "longitude": 112.768227
    },  
    {
      "name": "Expedisi Indah Cargo Logistik Petemon",
      "latitude": -7.267734,
      "longitude": 112.719719
    },   
    {
      "name": "Sentral Cargo Surabaya Wiyung",
      "latitude": -7.313495,
      "longitude": 112.700157
    },  
    {
      "name": "Makharya Cargo",
      "latitude": -7.246657,
      "longitude": 112.769447
    },
    { 
      "name": "Java Indo Cargo",
      "latitude": -7.249567,
      "longitude": 112.791954
    },  
    { 
      "name": "Almaguna Cargo Surabaya",
      "latitude": -7.239446,
      "longitude": 112.778694
    },   
    {  
      "name": "DMK Cargo Perak Surabaya",
      "latitude": -7.226250,
      "longitude": 112.731483
    },  
    {  
      "name": "Uniair Indotama East Cargo, PT",
      "latitude": -7.202034,
      "longitude": 112.733551
    },  
    {   
      "name": "PT INDAH CARGO (PUSAT SURABAYA)",
      "latitude": -7.221097,
      "longitude": 112.778004
    },  
    {    
      "name": "PT. KRIS CARGO BAHTERA",
      "latitude": -7.250578,
      "longitude": 112.736702
    },  
    {     
      "name": "Kingdom Logistic International",
      "latitude": -7.229334,
      "longitude": 112.701973
    },  
    {     
      "name": "SHP Cargo Ekspedisi Udara",
      "latitude": -7.232734, 
      "longitude": 112.721161
    }
  ]  
}


